[
  {
    "id": "395414892",
    "name": "26 ZOUGARI CODE 01.1.10.949",
    "type": "immeuble",
    "eligibility": "raccordable",
    "latitude": 33.59381,
    "longitude": -7.64394,
    "city": "CASABLANCA",
    "district": "RACINE EXTENSION",
    "street": "SIJILMASSI OU PHARE",
    "projectName": "",
    "apartemntsNumber": 13,
    "clientsNumber": 0,
    "address": "CASABLANCA, RACINE EXTENSION, SIJILMASSI OU PHARE, 26 ZOUGARI CODE 01.1.10.949"
  },
  {
    "id": "395438484",
    "name": "22 NABILA CODE 01.1.10.950",
    "type": "immeuble",
    "eligibility": "raccordable",
    "latitude": 33.5937,
    "longitude": -7.6438,
    "city": "CASABLANCA",
    "district": "TRIANGLE DOR",
    "street": "SIJILMASSI OU PHARE",
    "projectName": "",
    "apartemntsNumber": 11,
    "clientsNumber": 0,
    "address": "CASABLANCA, TRIANGLE DOR, SIJILMASSI OU PHARE, 22 NABILA CODE 01.1.10.950"
  },
  {
    "id": "395469388",
    "name": "LAMIAE 26 CODE 01.1.23.198",
    "type": "immeuble",
    "eligibility": "raccordable",
    "latitude": 33.59367,
    "longitude": -7.6438,
    "city": "CASABLANCA",
    "district": "BOURGOGNE",
    "street": "MOHAMMED SIJILMASSI",
    "projectName": "",
    "apartemntsNumber": 22,
    "clientsNumber": 0,
    "address": "CASABLANCA, BOURGOGNE, MOHAMMED SIJILMASSI, LAMIAE 26 CODE 01.1.23.198"
  },
  {
    "id": "395618684",
    "name": "3 KETTANI CODE 01.1.11.080",
    "type": "immeuble",
    "eligibility": "raccordable",
    "latitude": 33.59364,
    "longitude": -7.64422,
    "city": "CASABLANCA",
    "district": "RACINE",
    "street": "JAAFAR IBNOU HABIB",
    "projectName": "",
    "apartemntsNumber": 11,
    "clientsNumber": 0,
    "address": "CASABLANCA, RACINE, JAAFAR IBNOU HABIB, 3 KETTANI CODE 01.1.11.080"
  },
  {
    "id": "395414774",
    "name": "34 OREE DU PARC CODE 01.1.10.946",
    "type": "immeuble",
    "eligibility": "raccordable",
    "latitude": 33.59401,
    "longitude": -7.64427,
    "city": "CASABLANCA",
    "district": "RACINE EXTENSION",
    "street": "SIJILMASSI OU PHARE",
    "projectName": "",
    "apartemntsNumber": 12,
    "clientsNumber": 0,
    "address": "CASABLANCA, RACINE EXTENSION, SIJILMASSI OU PHARE, 34 OREE DU PARC CODE 01.1.10.946"
  },
  {
    "id": "395440670",
    "name": "49 REDA CODE 01.1.10.891",
    "type": "immeuble",
    "eligibility": "raccordable",
    "latitude": 33.59415,
    "longitude": -7.64404,
    "city": "CASABLANCA",
    "district": "TRIANGLE DOR",
    "street": "AIN TAOUJTATE",
    "projectName": "",
    "apartemntsNumber": 12,
    "clientsNumber": 0,
    "address": "CASABLANCA, TRIANGLE DOR, AIN TAOUJTATE, 49 REDA CODE 01.1.10.891"
  },
  {
    "id": "395438101",
    "name": "47 REKIA CODE 01.1.10.892",
    "type": "immeuble",
    "eligibility": "raccordable",
    "latitude": 33.59415,
    "longitude": -7.64383,
    "city": "CASABLANCA",
    "district": "TRIANGLE DOR",
    "street": "AIN TAOUJTATE",
    "projectName": "",
    "apartemntsNumber": 10,
    "clientsNumber": 0,
    "address": "CASABLANCA, TRIANGLE DOR, AIN TAOUJTATE, 47 REKIA CODE 01.1.10.892"
  },
  {
    "id": "396189513",
    "name": "24 CHEMS AL ACHIYI CODE 01.1.10.839",
    "type": "immeuble",
    "eligibility": "raccordable",
    "latitude": 33.59358,
    "longitude": -7.64364,
    "city": "CASABLANCA",
    "district": "RACINE EXTENSION",
    "street": "AIN EL ATI",
    "projectName": "",
    "apartemntsNumber": 13,
    "clientsNumber": 0,
    "address": "CASABLANCA, RACINE EXTENSION, AIN EL ATI, 24 CHEMS AL ACHIYI CODE 01.1.10.839"
  },
  {
    "id": "395412520",
    "name": "OUZAL CODE 01.1.10.890",
    "type": "immeuble",
    "eligibility": "raccordable",
    "latitude": 33.59415,
    "longitude": -7.64424,
    "city": "CASABLANCA",
    "district": "RACINE EXTENSION",
    "street": "AIN TAOUJTATE",
    "projectName": "",
    "apartemntsNumber": 11,
    "clientsNumber": 0,
    "address": "CASABLANCA, RACINE EXTENSION, AIN TAOUJTATE, OUZAL CODE 01.1.10.890"
  },
  {
    "id": "395438612",
    "name": "29 PHARE CODE 01.1.10.960",
    "type": "immeuble",
    "eligibility": "raccordable",
    "latitude": 33.59359,
    "longitude": -7.64434,
    "city": "CASABLANCA",
    "district": "TRIANGLE DOR",
    "street": "SIJILMASSI OU PHARE",
    "projectName": "",
    "apartemntsNumber": 14,
    "clientsNumber": 0,
    "address": "CASABLANCA, TRIANGLE DOR, SIJILMASSI OU PHARE, 29 PHARE CODE 01.1.10.960"
  },
  {
    "id": "395412200",
    "name": "20 DAR NOJOUM CODE 01.1.10.840",
    "type": "immeuble",
    "eligibility": "raccordable",
    "latitude": 33.59364,
    "longitude": -7.64353,
    "city": "CASABLANCA",
    "district": "RACINE EXTENSION",
    "street": "AIN EL ATI",
    "projectName": "",
    "apartemntsNumber": 12,
    "clientsNumber": 0,
    "address": "CASABLANCA, RACINE EXTENSION, AIN EL ATI, 20 DAR NOJOUM CODE 01.1.10.840"
  },
  {
    "id": "395438691",
    "name": "27 PERVENCHE CODE 01.1.10.961",
    "type": "immeuble",
    "eligibility": "raccordable",
    "latitude": 33.59346,
    "longitude": -7.64419,
    "city": "CASABLANCA",
    "district": "TRIANGLE DOR",
    "street": "SIJILMASSI OU PHARE",
    "projectName": "",
    "apartemntsNumber": 11,
    "clientsNumber": 0,
    "address": "CASABLANCA, TRIANGLE DOR, SIJILMASSI OU PHARE, 27 PERVENCHE CODE 01.1.10.961"
  },
  {
    "id": "395438135",
    "name": "45 FETH CODE 01.1.10.893",
    "type": "immeuble",
    "eligibility": "raccordable",
    "latitude": 33.59417,
    "longitude": -7.64363,
    "city": "CASABLANCA",
    "district": "TRIANGLE DOR",
    "street": "AIN TAOUJTATE",
    "projectName": "",
    "apartemntsNumber": 1,
    "clientsNumber": 0,
    "address": "CASABLANCA, TRIANGLE DOR, AIN TAOUJTATE, 45 FETH CODE 01.1.10.893"
  },
  {
    "id": "395413006",
    "name": "33 ELITE A CODE 01.1.10.959",
    "type": "immeuble",
    "eligibility": "raccordable",
    "latitude": 33.59371,
    "longitude": -7.6445,
    "city": "CASABLANCA",
    "district": "RACINE EXTENSION",
    "street": "SIJILMASSI OU PHARE",
    "projectName": "",
    "apartemntsNumber": 13,
    "clientsNumber": 0,
    "address": "CASABLANCA, RACINE EXTENSION, SIJILMASSI OU PHARE, 33 ELITE A CODE 01.1.10.959"
  },
  {
    "id": "395438724",
    "name": "25 CODE 01.1.10.962",
    "type": "immeuble",
    "eligibility": "raccordable",
    "latitude": 33.59338,
    "longitude": -7.64403,
    "city": "CASABLANCA",
    "district": "TRIANGLE DOR",
    "street": "SIJILMASSI OU PHARE",
    "projectName": "",
    "apartemntsNumber": 12,
    "clientsNumber": 0,
    "address": "CASABLANCA, TRIANGLE DOR, SIJILMASSI OU PHARE, 25 CODE 01.1.10.962"
  },
  {
    "id": "395412170",
    "name": "18 LAS ARENAS CODE 01.1.10.841",
    "type": "immeuble",
    "eligibility": "raccordable",
    "latitude": 33.59372,
    "longitude": -7.6434,
    "city": "CASABLANCA",
    "district": "RACINE EXTENSION",
    "street": "AIN EL ATI",
    "projectName": "",
    "apartemntsNumber": 12,
    "clientsNumber": 0,
    "address": "CASABLANCA, RACINE EXTENSION, AIN EL ATI, 18 LAS ARENAS CODE 01.1.10.841"
  },
  {
    "id": "395448856",
    "name": "98 IMANE CODE 01.1.12.762",
    "type": "immeuble",
    "eligibility": "raccordable",
    "latitude": 33.59433,
    "longitude": -7.64422,
    "city": "CASABLANCA",
    "district": "RACINE",
    "street": "AIN TAOUJTATE",
    "projectName": "",
    "apartemntsNumber": 11,
    "clientsNumber": 0,
    "address": "CASABLANCA, RACINE, AIN TAOUJTATE, 98 IMANE CODE 01.1.12.762"
  },
  {
    "id": "395413401",
    "name": "27 HAJJAJ CODE 01.1.10.788",
    "type": "immeuble",
    "eligibility": "raccordable",
    "latitude": 33.59403,
    "longitude": -7.64335,
    "city": "CASABLANCA",
    "district": "RACINE EXTENSION",
    "street": "ESSANAANI",
    "projectName": "",
    "apartemntsNumber": 12,
    "clientsNumber": 0,
    "address": "CASABLANCA, RACINE EXTENSION, ESSANAANI, 27 HAJJAJ CODE 01.1.10.788"
  },
  {
    "id": "395450571",
    "name": "ARBIA 64 CODE 01.1.10.289",
    "type": "immeuble",
    "eligibility": "raccordable",
    "latitude": 33.59412,
    "longitude": -7.64336,
    "city": "CASABLANCA",
    "district": "RACINE EXTENSION",
    "street": "ESSANAANI",
    "projectName": "",
    "apartemntsNumber": 23,
    "clientsNumber": 0,
    "address": "CASABLANCA, RACINE EXTENSION, ESSANAANI, ARBIA 64 CODE 01.1.10.289"
  },
  {
    "id": "395412562",
    "name": "43 FLEURS CODE 01.1.10.894",
    "type": "immeuble",
    "eligibility": "raccordable",
    "latitude": 33.59423,
    "longitude": -7.64345,
    "city": "CASABLANCA",
    "district": "RACINE EXTENSION",
    "street": "AIN TAOUJTATE",
    "projectName": "",
    "apartemntsNumber": 12,
    "clientsNumber": 0,
    "address": "CASABLANCA, RACINE EXTENSION, AIN TAOUJTATE, 43 FLEURS CODE 01.1.10.894"
  },
  {
    "id": "395445005",
    "name": "RABII CODE 01.1.11.171",
    "type": "immeuble",
    "eligibility": "raccordable",
    "latitude": 33.59429,
    "longitude": -7.64442,
    "city": "CASABLANCA",
    "district": "RACINE EXTENSION",
    "street": "AIN TAOUJTATE",
    "projectName": "",
    "apartemntsNumber": 12,
    "clientsNumber": 0,
    "address": "CASABLANCA, RACINE EXTENSION, AIN TAOUJTATE, RABII CODE 01.1.11.171"
  },
  {
    "id": "396194810",
    "name": "17 CODE 01.1.10.833",
    "type": "immeuble",
    "eligibility": "raccordable",
    "latitude": 33.59345,
    "longitude": -7.64343,
    "city": "CASABLANCA",
    "district": "TRIANGLE DOR",
    "street": "AIN EL ATI",
    "projectName": "",
    "apartemntsNumber": 11,
    "clientsNumber": 0,
    "address": "CASABLANCA, TRIANGLE DOR, AIN EL ATI, 17 CODE 01.1.10.833"
  },
  {
    "id": "395438783",
    "name": "23 AVENUE CODE 01.1.10.963",
    "type": "immeuble",
    "eligibility": "raccordable",
    "latitude": 33.59325,
    "longitude": -7.64386,
    "city": "CASABLANCA",
    "district": "TRIANGLE DOR",
    "street": "SIJILMASSI OU PHARE",
    "projectName": "",
    "apartemntsNumber": 24,
    "clientsNumber": 0,
    "address": "CASABLANCA, TRIANGLE DOR, SIJILMASSI OU PHARE, 23 AVENUE CODE 01.1.10.963"
  },
  {
    "id": "395615659",
    "name": "98 IMANE CODE 01.1.11.431",
    "type": "immeuble",
    "eligibility": "adressable",
    "latitude": 33.59445,
    "longitude": -7.64408,
    "city": "CASABLANCA",
    "district": "RACINE",
    "street": "AIN TAOUJTATE",
    "projectName": "",
    "apartemntsNumber": 0,
    "clientsNumber": 0,
    "address": "CASABLANCA, RACINE, AIN TAOUJTATE, 98 IMANE CODE 01.1.11.431"
  },
  {
    "id": "395437629",
    "name": "23 OULAD BOUDAOUED CODE 01.1.10.787",
    "type": "immeuble",
    "eligibility": "raccordable",
    "latitude": 33.59391,
    "longitude": -7.64322,
    "city": "CASABLANCA",
    "district": "TRIANGLE DOR",
    "street": "ESSANAANI",
    "projectName": "",
    "apartemntsNumber": 13,
    "clientsNumber": 0,
    "address": "CASABLANCA, TRIANGLE DOR, ESSANAANI, 23 OULAD BOUDAOUED CODE 01.1.10.787"
  },
  {
    "id": "395615664",
    "name": "100 TULIPE CODE 01.1.11.432",
    "type": "immeuble",
    "eligibility": "adressable",
    "latitude": 33.59442,
    "longitude": -7.64427,
    "city": "CASABLANCA",
    "district": "RACINE",
    "street": "AIN TAOUJTATE",
    "projectName": "",
    "apartemntsNumber": 0,
    "clientsNumber": 0,
    "address": "CASABLANCA, RACINE, AIN TAOUJTATE, 100 TULIPE CODE 01.1.11.432"
  },
  {
    "id": "395437870",
    "name": "19 ASSILM 3 CODE 01.1.10.842",
    "type": "immeuble",
    "eligibility": "raccordable",
    "latitude": 33.5938,
    "longitude": -7.64321,
    "city": "CASABLANCA",
    "district": "TRIANGLE DOR",
    "street": "AIN EL ATI",
    "projectName": "",
    "apartemntsNumber": 10,
    "clientsNumber": 0,
    "address": "CASABLANCA, TRIANGLE DOR, AIN EL ATI, 19 ASSILM 3 CODE 01.1.10.842"
  },
  {
    "id": "395436321",
    "name": "4 CODE 01.1.10.453",
    "type": "immeuble",
    "eligibility": "adressable",
    "latitude": 33.59364,
    "longitude": -7.64471,
    "city": "CASABLANCA",
    "district": "TRIANGLE DOR",
    "street": "BAB AL IRFANE",
    "projectName": "",
    "apartemntsNumber": 0,
    "clientsNumber": 0,
    "address": "CASABLANCA, TRIANGLE DOR, BAB AL IRFANE, 4 CODE 01.1.10.453"
  },
  {
    "id": "395476993",
    "name": "EL PRADO 2 CODE 01.1.10.972",
    "type": "immeuble",
    "eligibility": "raccordable",
    "latitude": 33.59317,
    "longitude": -7.64405,
    "city": "CASABLANCA",
    "district": "TRIANGLE DOR",
    "street": "BAB AL MENDEB",
    "projectName": "",
    "apartemntsNumber": 12,
    "clientsNumber": 0,
    "address": "CASABLANCA, TRIANGLE DOR, BAB AL MENDEB, EL PRADO 2 CODE 01.1.10.972"
  },
  {
    "id": "395436645",
    "name": "17 PRADO CODE 01.1.10.501",
    "type": "immeuble",
    "eligibility": "raccordable",
    "latitude": 33.59317,
    "longitude": -7.64406,
    "city": "CASABLANCA",
    "district": "TRIANGLE DOR",
    "street": "BAB AL MENDEB",
    "projectName": "",
    "apartemntsNumber": 12,
    "clientsNumber": 0,
    "address": "CASABLANCA, TRIANGLE DOR, BAB AL MENDEB, 17 PRADO CODE 01.1.10.501"
  },
  {
    "id": "395633807",
    "name": "35 MOULAY DRISS CODE 01.1.11.350",
    "type": "immeuble",
    "eligibility": "raccordable",
    "latitude": 33.59451,
    "longitude": -7.6438,
    "city": "CASABLANCA",
    "district": "RACINE",
    "street": "INCONNUE_CENTRE IDEAL BOURGOGNE",
    "projectName": "",
    "apartemntsNumber": 19,
    "clientsNumber": 0,
    "address": "CASABLANCA, RACINE, INCONNUE_CENTRE IDEAL BOURGOGNE, 35 MOULAY DRISS CODE 01.1.11.350"
  },
  {
    "id": "395436444",
    "name": "BALZAC CODE 01.1.10.495",
    "type": "immeuble",
    "eligibility": "raccordable",
    "latitude": 33.59314,
    "longitude": -7.64417,
    "city": "CASABLANCA",
    "district": "TRIANGLE DOR",
    "street": "BAB AL MENDEB",
    "projectName": "",
    "apartemntsNumber": 11,
    "clientsNumber": 0,
    "address": "CASABLANCA, TRIANGLE DOR, BAB AL MENDEB, BALZAC CODE 01.1.10.495"
  },
  {
    "id": "395412435",
    "name": "15 YASMINE CODE 01.1.10.834",
    "type": "immeuble",
    "eligibility": "raccordable",
    "latitude": 33.59354,
    "longitude": -7.64318,
    "city": "CASABLANCA",
    "district": "RACINE EXTENSION",
    "street": "AIN EL ATI",
    "projectName": "",
    "apartemntsNumber": 12,
    "clientsNumber": 0,
    "address": "CASABLANCA, RACINE EXTENSION, AIN EL ATI, 15 YASMINE CODE 01.1.10.834"
  },
  {
    "id": "395436628",
    "name": "OREE DU PARC CODE 01.1.10.500",
    "type": "immeuble",
    "eligibility": "raccordable",
    "latitude": 33.59314,
    "longitude": -7.64423,
    "city": "CASABLANCA",
    "district": "TRIANGLE DOR",
    "street": "BAB AL MENDEB",
    "projectName": "",
    "apartemntsNumber": 10,
    "clientsNumber": 0,
    "address": "CASABLANCA, TRIANGLE DOR, BAB AL MENDEB, OREE DU PARC CODE 01.1.10.500"
  },
  {
    "id": "395413049",
    "name": "2 ELITE B CODE 01.1.10.452",
    "type": "immeuble",
    "eligibility": "raccordable",
    "latitude": 33.59351,
    "longitude": -7.64476,
    "city": "CASABLANCA",
    "district": "RACINE EXTENSION",
    "street": "BAB AL IRFANE",
    "projectName": "",
    "apartemntsNumber": 12,
    "clientsNumber": 0,
    "address": "CASABLANCA, RACINE EXTENSION, BAB AL IRFANE, 2 ELITE B CODE 01.1.10.452"
  },
  {
    "id": "395439136",
    "name": "DEREVMO CODE 01.1.10.781",
    "type": "immeuble",
    "eligibility": "raccordable",
    "latitude": 33.59417,
    "longitude": -7.64317,
    "city": "CASABLANCA",
    "district": "TRIANGLE DOR",
    "street": "ESSANAANI",
    "projectName": "",
    "apartemntsNumber": 1,
    "clientsNumber": 0,
    "address": "CASABLANCA, TRIANGLE DOR, ESSANAANI, DEREVMO CODE 01.1.10.781"
  },
  {
    "id": "395438531",
    "name": "18 PHARE CODE 01.1.10.951",
    "type": "immeuble",
    "eligibility": "adressable",
    "latitude": 33.59333,
    "longitude": -7.6433,
    "city": "CASABLANCA",
    "district": "TRIANGLE DOR",
    "street": "SIJILMASSI OU PHARE",
    "projectName": "",
    "apartemntsNumber": 0,
    "clientsNumber": 0,
    "address": "CASABLANCA, TRIANGLE DOR, SIJILMASSI OU PHARE, 18 PHARE CODE 01.1.10.951"
  },
  {
    "id": "395633475",
    "name": "36 CODE 01.1.11.811",
    "type": "immeuble",
    "eligibility": "raccordable",
    "latitude": 33.59445,
    "longitude": -7.64458,
    "city": "CASABLANCA",
    "district": "RACINE",
    "street": "MOHAMED SIJILMASSI",
    "projectName": "",
    "apartemntsNumber": 7,
    "clientsNumber": 0,
    "address": "CASABLANCA, RACINE, MOHAMED SIJILMASSI, 36 CODE 01.1.11.811"
  },
  {
    "id": "395436547",
    "name": "OREE DU PARC CODE 01.1.10.499",
    "type": "immeuble",
    "eligibility": "raccordable",
    "latitude": 33.59314,
    "longitude": -7.64442,
    "city": "CASABLANCA",
    "district": "TRIANGLE DOR",
    "street": "BAB AL MENDEB",
    "projectName": "",
    "apartemntsNumber": 11,
    "clientsNumber": 0,
    "address": "CASABLANCA, TRIANGLE DOR, BAB AL MENDEB, OREE DU PARC CODE 01.1.10.499"
  },
  {
    "id": "395485584",
    "name": "AB YASSINE CODE 01.1.12.761",
    "type": "immeuble",
    "eligibility": "raccordable",
    "latitude": 33.59306,
    "longitude": -7.64368,
    "city": "CASABLANCA",
    "district": "RACINE",
    "street": "BAB AL MENDEB",
    "projectName": "",
    "apartemntsNumber": 6,
    "clientsNumber": 0,
    "address": "CASABLANCA, RACINE, BAB AL MENDEB, AB YASSINE CODE 01.1.12.761"
  },
  {
    "id": "395436535",
    "name": "18 ABYSSIN CODE 01.1.10.497",
    "type": "immeuble",
    "eligibility": "adressable",
    "latitude": 33.59306,
    "longitude": -7.64367,
    "city": "CASABLANCA",
    "district": "TRIANGLE DOR",
    "street": "BAB AL MENDEB",
    "projectName": "",
    "apartemntsNumber": 0,
    "clientsNumber": 0,
    "address": "CASABLANCA, TRIANGLE DOR, BAB AL MENDEB, 18 ABYSSIN CODE 01.1.10.497"
  },
  {
    "id": "395606001",
    "name": "37 OUCHTAR VIII CODE 01.1.11.351",
    "type": "immeuble",
    "eligibility": "raccordable",
    "latitude": 33.59466,
    "longitude": -7.64404,
    "city": "CASABLANCA",
    "district": "RACINE",
    "street": "INCONNUE_CENTRE IDEAL BOURGOGNE",
    "projectName": "",
    "apartemntsNumber": 10,
    "clientsNumber": 0,
    "address": "CASABLANCA, RACINE, INCONNUE_CENTRE IDEAL BOURGOGNE, 37 OUCHTAR VIII CODE 01.1.11.351"
  },
  {
    "id": "395438143",
    "name": "43 BADR CODE 01.1.10.895",
    "type": "immeuble",
    "eligibility": "raccordable",
    "latitude": 33.59434,
    "longitude": -7.64318,
    "city": "CASABLANCA",
    "district": "TRIANGLE DOR",
    "street": "AIN TAOUJTATE",
    "projectName": "",
    "apartemntsNumber": 24,
    "clientsNumber": 0,
    "address": "CASABLANCA, TRIANGLE DOR, AIN TAOUJTATE, 43 BADR CODE 01.1.10.895"
  },
  {
    "id": "395436539",
    "name": "3 FAUBOURG CODE 01.1.10.498",
    "type": "immeuble",
    "eligibility": "adressable",
    "latitude": 33.59316,
    "longitude": -7.6446,
    "city": "CASABLANCA",
    "district": "TRIANGLE DOR",
    "street": "BAB AL MENDEB",
    "projectName": "",
    "apartemntsNumber": 0,
    "clientsNumber": 0,
    "address": "CASABLANCA, TRIANGLE DOR, BAB AL MENDEB, 3 FAUBOURG CODE 01.1.10.498"
  },
  {
    "id": "395436511",
    "name": "16 CODE 01.1.10.496",
    "type": "immeuble",
    "eligibility": "raccordable",
    "latitude": 33.59298,
    "longitude": -7.64382,
    "city": "CASABLANCA",
    "district": "TRIANGLE DOR",
    "street": "BAB AL MENDEB",
    "projectName": "",
    "apartemntsNumber": 27,
    "clientsNumber": 0,
    "address": "CASABLANCA, TRIANGLE DOR, BAB AL MENDEB, 16 CODE 01.1.10.496"
  },
  {
    "id": "395437567",
    "name": "17 ZAKI CODE 01.1.10.786",
    "type": "immeuble",
    "eligibility": "raccordable",
    "latitude": 33.59361,
    "longitude": -7.64295,
    "city": "CASABLANCA",
    "district": "TRIANGLE DOR",
    "street": "ESSANAANI",
    "projectName": "",
    "apartemntsNumber": 17,
    "clientsNumber": 0,
    "address": "CASABLANCA, TRIANGLE DOR, ESSANAANI, 17 ZAKI CODE 01.1.10.786"
  },
  {
    "id": "395438850",
    "name": "19 OCEAN CODE 01.1.10.964",
    "type": "immeuble",
    "eligibility": "raccordable",
    "latitude": 33.59303,
    "longitude": -7.64355,
    "city": "CASABLANCA",
    "district": "TRIANGLE DOR",
    "street": "SIJILMASSI OU PHARE",
    "projectName": "",
    "apartemntsNumber": 6,
    "clientsNumber": 0,
    "address": "CASABLANCA, TRIANGLE DOR, SIJILMASSI OU PHARE, 19 OCEAN CODE 01.1.10.964"
  },
  {
    "id": "395450532",
    "name": "DORSAF CODE 01.1.10.221",
    "type": "immeuble",
    "eligibility": "raccordable",
    "latitude": 33.59323,
    "longitude": -7.64475,
    "city": "CASABLANCA",
    "district": "RACINE EXTENSION",
    "street": "BAB AL IRFANE",
    "projectName": "",
    "apartemntsNumber": 11,
    "clientsNumber": 0,
    "address": "CASABLANCA, RACINE EXTENSION, BAB AL IRFANE, DORSAF CODE 01.1.10.221"
  },
  {
    "id": "395598783",
    "name": "18 DAGUERE CODE 01.1.11.349",
    "type": "immeuble",
    "eligibility": "raccordable",
    "latitude": 33.59466,
    "longitude": -7.64354,
    "city": "CASABLANCA",
    "district": "RACINE",
    "street": "INCONNUE_CENTRE IDEAL BOURGOGNE",
    "projectName": "",
    "apartemntsNumber": 17,
    "clientsNumber": 0,
    "address": "CASABLANCA, RACINE, INCONNUE_CENTRE IDEAL BOURGOGNE, 18 DAGUERE CODE 01.1.11.349"
  },
  {
    "id": "395412908",
    "name": "3 SANS PAREIL DAR OUMAIMA CODE 01.1.10.451",
    "type": "immeuble",
    "eligibility": "raccordable",
    "latitude": 33.59324,
    "longitude": -7.64477,
    "city": "CASABLANCA",
    "district": "RACINE EXTENSION",
    "street": "BAB AL IRFANE",
    "projectName": "",
    "apartemntsNumber": 12,
    "clientsNumber": 0,
    "address": "CASABLANCA, RACINE EXTENSION, BAB AL IRFANE, 3 SANS PAREIL DAR OUMAIMA CODE 01.1.10.451"
  }
]
